#BESTPOSA,USB1,0,53.0,FINESTEERING,2404,603392.000,03000800,cdba,18018;SOL_COMPUTED,PPP,51.07900076871,-114.13253474074,1113.8828,-16.6001,WGS84,0.0176,0.0137,0.0333,"TSTR",12.000,0.000,36,33,33,31,00,00,ff,37*27ee4502
#BESTPOSA,USB1,0,53.5,FINESTEERING,2404,603393.000,03000800,cdba,18018;SOL_COMPUTED,PPP,51.07900076028,-114.13253474490,1113.8822,-16.6001,WGS84,0.0174,0.0136,0.0330,"TSTR",13.000,0.000,36,32,32,30,00,00,ff,37*f916bae5
#BESTPOSA,USB1,0,53.5,FINESTEERING,2404,603394.000,03000800,cdba,18018;SOL_COMPUTED,PPP,51.07900076507,-114.13253475254,1113.8848,-16.6001,WGS84,0.0173,0.0136,0.0329,"TSTR",14.000,0.000,36,33,33,31,00,00,ff,37*0eea0b45
#BESTPOSA,USB1,0,53.5,FINESTEERING,2404,603395.000,03000800,cdba,18018;SOL_COMPUTED,PPP,51.07900076009,-114.13253471912,1113.8863,-16.6001,WGS84,0.0175,0.0136,0.0331,"TSTR",15.000,0.000,36,33,33,31,00,00,ff,37*bdcb9464
#BESTPOSA,USB1,0,53.5,FINESTEERING,2404,603396.000,03000800,cdba,18018;SOL_COMPUTED,PPP,51.07900076028,-114.13253471738,1113.8875,-16.6001,WGS84,0.0177,0.0138,0.0336,"TSTR",16.000,0.000,36,33,33,31,00,00,ff,37*bf892ba4
#BESTPOSA,USB1,0,54.5,FINESTEERING,2404,603397.000,03000800,cdba,18018;SOL_COMPUTED,PPP,51.07900078224,-114.13253472106,1113.8872,-16.6001,WGS84,0.0181,0.0141,0.0342,"TSTR",17.000,0.000,36,33,33,31,00,00,ff,37*2a0ac884
#BESTPOSA,USB1,0,54.0,FINESTEERING,2404,603398.000,03000800,cdba,18018;SOL_COMPUTED,PPP,51.07900077414,-114.13253471154,1113.8866,-16.6001,WGS84,0.0185,0.0144,0.0349,"TSTR",18.000,0.000,36,33,33,31,00,00,ff,37*fe4ce8b8
#BESTPOSA,USB1,0,54.0,FINESTEERING,2404,603399.000,03000800,cdba,18018;SOL_COMPUTED,PPP,51.07900078630,-114.13253471173,1113.8883,-16.6001,WGS84,0.0189,0.0147,0.0356,"TSTR",19.000,0.000,36,33,33,31,00,00,ff,37*f7c67bfc
#BESTPOSA,USB1,0,54.5,FINESTEERING,2404,603400.000,03000800,cdba,18018;SOL_COMPUTED,PPP,51.07900078147,-114.13253472616,1113.8876,-16.6001,WGS84,0.0193,0.0151,0.0363,"TSTR",20.000,0.000,36,33,33,31,00,00,ff,37*1dc2e176
#BESTPOSA,USB1,0,52.5,FINESTEERING,2404,603401.000,03000800,cdba,18018;SOL_COMPUTED,PPP,51.07900077776,-114.13253473593,1113.8893,-16.6001,WGS84,0.0195,0.0152,0.0367,"TSTR",11.000,0.000,36,33,33,31,00,00,ff,37*dfa4186f
#BESTPOSA,USB1,0,52.5,FINESTEERING,2404,603402.000,03000800,cdba,18018;SOL_COMPUTED,PPP,51.07900076841,-114.13253472660,1113.8900,-16.6001,WGS84,0.0193,0.0151,0.0364,"TSTR",12.000,0.000,36,33,33,31,00,00,ff,37*1b3c70d9
#BESTPOSA,USB1,0,43.5,FINESTEERING,2404,603403.000,03000800,cdba,18018;SOL_COMPUTED,PPP,51.07900077216,-114.13253474272,1113.8885,-16.6001,WGS84,0.0191,0.0149,0.0360,"TSTR",13.000,0.000,36,33,33,31,00,00,ff,37*924a531f
#BESTPOSA,USB1,0,43.5,FINESTEERING,2404,603404.000,03000800,cdba,18018;SOL_COMPUTED,PPP,51.07900075157,-114.13253472790,1113.8871,-16.6001,WGS84,0.0189,0.0147,0.0356,"TSTR",14.000,0.000,36,33,33,31,00,00,ff,37*a5d95e78
#BESTPOSA,USB1,0,51.5,FINESTEERING,2404,603405.000,03000800,cdba,18018;SOL_COMPUTED,PPP,51.07900075181,-114.13253473474,1113.8869,-16.6001,WGS84,0.0187,0.0145,0.0352,"TSTR",15.000,0.000,36,33,33,31,00,00,ff,37*fd5c8e5f
#BESTPOSA,USB1,0,54.0,FINESTEERING,2404,603406.000,03000800,cdba,18018;SOL_COMPUTED,PPP,51.07900074165,-114.13253475052,1113.8835,-16.6001,WGS84,0.0186,0.0144,0.0351,"TSTR",16.000,0.000,36,33,33,31,00,00,ff,37*60177982
#BESTPOSA,USB1,0,53.0,FINESTEERING,2404,603407.000,03000800,cdba,18018;SOL_COMPUTED,PPP,51.07900073140,-114.13253476441,1113.8841,-16.6001,WGS84,0.0187,0.0144,0.0352,"TSTR",17.000,0.000,36,33,33,31,00,00,ff,37*388c72ed
#BESTPOSA,USB1,0,53.0,FINESTEERING,2404,603408.000,03000800,cdba,18018;SOL_COMPUTED,PPP,51.07900073360,-114.13253476641,1113.8836,-16.6001,WGS84,0.0189,0.0145,0.0355,"TSTR",18.000,0.000,36,33,33,31,00,00,ff,37*1a40fed6
#BESTPOSA,USB1,0,54.0,FINESTEERING,2404,603409.000,03000800,cdba,18018;SOL_COMPUTED,PPP,51.07900071591,-114.13253475972,1113.8848,-16.6001,WGS84,0.0192,0.0147,0.0361,"TSTR",19.000,0.000,36,33,33,31,00,00,ff,37*ebef8691
#BESTPOSA,USB1,0,53.0,FINESTEERING,2404,603410.000,03000800,cdba,18018;SOL_COMPUTED,PPP,51.07900070211,-114.13253477382,1113.8805,-16.6001,WGS84,0.0196,0.0150,0.0367,"TSTR",20.000,0.000,36,33,33,31,00,00,ff,37*0faad829
#BESTPOSA,USB1,0,53.0,FINESTEERING,2404,603411.000,03000800,cdba,18018;SOL_COMPUTED,PPP,51.07900069233,-114.13253477642,1113.8844,-16.6001,WGS84,0.0198,0.0152,0.0370,"TSTR",11.000,0.000,36,33,33,31,00,00,ff,37*a12be338
#BESTPOSA,USB1,0,53.0,FINESTEERING,2404,603412.000,03000800,cdba,18018;SOL_COMPUTED,PPP,51.07900070409,-114.13253480011,1113.8835,-16.6001,WGS84,0.0196,0.0150,0.0367,"TSTR",12.000,0.000,36,33,33,31,00,00,ff,37*abeb5326
#BESTPOSA,USB1,0,41.5,FINESTEERING,2404,603413.000,03000800,cdba,18018;SOL_COMPUTED,PPP,51.07900069709,-114.13253481518,1113.8836,-16.6001,WGS84,0.0193,0.0148,0.0363,"TSTR",13.000,0.000,36,33,33,31,00,00,ff,37*edbc3dd4
#BESTPOSA,USB1,0,41.5,FINESTEERING,2404,603414.000,03000800,cdba,18018;SOL_COMPUTED,PPP,51.07900068492,-114.13253481992,1113.8804,-16.6001,WGS84,0.0191,0.0147,0.0359,"TSTR",14.000,0.000,36,33,33,31,00,00,ff,37*dc425e17
#BESTPOSA,USB1,0,53.5,FINESTEERING,2404,603415.000,03000800,cdba,18018;SOL_COMPUTED,PPP,51.07900070285,-114.13253482048,1113.8805,-16.6001,WGS84,0.0188,0.0145,0.0354,"TSTR",15.000,0.000,36,32,32,31,00,00,ff,37*73fdc473
#BESTPOSA,USB1,0,53.5,FINESTEERING,2404,603416.000,03000800,cdba,18018;SOL_COMPUTED,PPP,51.07900070400,-114.13253483114,1113.8799,-16.6001,WGS84,0.0187,0.0144,0.0352,"TSTR",16.000,0.000,36,32,32,31,00,00,ff,37*ca44a211
#BESTPOSA,USB1,0,53.5,FINESTEERING,2404,603417.000,03000800,cdba,18018;SOL_COMPUTED,PPP,51.07900069055,-114.13253483772,1113.8765,-16.6001,WGS84,0.0187,0.0144,0.0352,"TSTR",17.000,0.000,36,32,32,31,00,00,ff,37*831d1e9c
#BESTPOSA,USB1,0,54.0,FINESTEERING,2404,603418.000,03000800,cdba,18018;SOL_COMPUTED,PPP,51.07900070080,-114.13253484934,1113.8779,-16.6001,WGS84,0.0189,0.0145,0.0355,"TSTR",18.000,0.000,36,32,32,31,00,00,ff,37*92501de5
#BESTPOSA,USB1,0,53.5,FINESTEERING,2404,603419.000,03000800,cdba,18018;SOL_COMPUTED,PPP,51.07900069435,-114.13253485223,1113.8752,-16.6001,WGS84,0.0192,0.0147,0.0360,"TSTR",19.000,0.000,36,32,32,31,00,00,ff,37*a199c81c
#BESTPOSA,USB1,0,53.5,FINESTEERING,2404,603420.000,03000800,cdba,18018;SOL_COMPUTED,PPP,51.07900069979,-114.13253485658,1113.8741,-16.6001,WGS84,0.0196,0.0150,0.0366,"TSTR",20.000,0.000,36,32,32,31,00,00,ff,37*17c1d257
#BESTPOSA,USB1,0,53.0,FINESTEERING,2404,603421.000,03000800,cdba,18018;SOL_COMPUTED,PPP,51.07900070630,-114.13253486125,1113.8738,-16.6001,WGS84,0.0200,0.0153,0.0374,"TSTR",21.000,0.000,36,32,32,31,00,00,ff,37*116b1f5c
#BESTPOSA,USB1,0,53.0,FINESTEERING,2404,603422.000,03000800,cdba,18018;SOL_COMPUTED,PPP,51.07900069939,-114.13253483953,1113.8749,-16.6001,WGS84,0.0199,0.0152,0.0371,"TSTR",12.000,0.000,36,32,32,31,00,00,ff,37*6802124e
#BESTPOSA,USB1,0,43.0,FINESTEERING,2404,603423.000,03000800,cdba,18018;SOL_COMPUTED,PPP,51.07900069733,-114.13253484428,1113.8730,-16.6001,WGS84,0.0197,0.0151,0.0367,"TSTR",13.000,0.000,36,33,33,31,00,00,ff,37*29561327
#BESTPOSA,USB1,0,43.0,FINESTEERING,2404,603424.000,03000800,cdba,18018;SOL_COMPUTED,PPP,51.07900069932,-114.13253485003,1113.8758,-16.6001,WGS84,0.0194,0.0149,0.0363,"TSTR",14.000,0.000,34,33,33,31,00,00,ff,37*1b519de7
#BESTPOSA,USB1,0,51.0,FINESTEERING,2404,603425.000,03000800,cdba,18018;SOL_COMPUTED,PPP,51.07900070835,-114.13253486023,1113.8749,-16.6001,WGS84,0.0192,0.0147,0.0359,"TSTR",15.000,0.000,34,33,33,31,00,00,ff,37*6313c819
#BESTPOSA,USB1,0,51.0,FINESTEERING,2404,603426.000,03000800,cdba,18018;SOL_COMPUTED,PPP,51.07900069101,-114.13253486103,1113.8781,-16.6001,WGS84,0.0190,0.0145,0.0356,"TSTR",16.000,0.000,34,33,33,31,00,00,ff,37*3a152dd5
#BESTPOSA,USB1,0,56.0,FINESTEERING,2404,603427.000,03000800,cdba,18018;SOL_COMPUTED,PPP,51.07900068779,-114.13253486910,1113.8816,-16.6001,WGS84,0.0190,0.0145,0.0355,"TSTR",17.000,0.000,34,33,33,31,00,00,ff,37*2611e6a7
#BESTPOSA,USB1,0,55.0,FINESTEERING,2404,603428.000,03000800,cdba,18018;SOL_COMPUTED,PPP,51.07900070532,-114.13253486389,1113.8852,-16.6001,WGS84,0.0191,0.0146,0.0357,"TSTR",18.000,0.000,34,33,33,31,00,00,ff,37*9ccfe9c4
#BESTPOSA,USB1,0,54.5,FINESTEERING,2404,603429.000,03000800,cdba,18018;SOL_COMPUTED,PPP,51.07900069388,-114.13253485200,1113.8840,-16.6001,WGS84,0.0193,0.0147,0.0361,"TSTR",19.000,0.000,34,33,33,31,00,00,ff,37*a3b45c62
#BESTPOSA,USB1,0,54.5,FINESTEERING,2404,603430.000,03000800,cdba,18018;SOL_COMPUTED,PPP,51.07900069560,-114.13253486246,1113.8853,-16.6001,WGS84,0.0191,0.0145,0.0356,"TSTR",10.000,0.000,34,33,33,31,00,00,ff,37*ae8e0697
#BESTPOSA,USB1,0,47.0,FINESTEERING,2404,603431.000,03000800,cdba,18018;SOL_COMPUTED,PPP,51.07900068423,-114.13253487167,1113.8860,-16.6001,WGS84,0.0188,0.0144,0.0353,"TSTR",11.000,0.000,34,33,33,31,00,00,ff,37*c026d872
#BESTPOSA,USB1,0,47.0,FINESTEERING,2404,603432.000,03000800,cdba,18018;SOL_COMPUTED,PPP,51.07900068942,-114.13253487076,1113.8849,-16.6001,WGS84,0.0186,0.0142,0.0349,"TSTR",12.000,0.000,34,33,33,31,00,00,ff,37*94e7f9b0
#BESTPOSA,USB1,0,52.5,FINESTEERING,2404,603433.000,03000800,cdba,18018;SOL_COMPUTED,PPP,51.07900068241,-114.13253488001,1113.8833,-16.6001,WGS84,0.0183,0.0140,0.0344,"TSTR",13.000,0.000,34,33,33,31,00,00,ff,37*ff973ac9
#BESTPOSA,USB1,0,55.0,FINESTEERING,2404,603434.000,03000800,cdba,18018;SOL_COMPUTED,PPP,51.07900064533,-114.13253488035,1113.8827,-16.6001,WGS84,0.0181,0.0139,0.0341,"TSTR",14.000,0.000,34,33,33,31,00,00,ff,37*b5c0e489
#BESTPOSA,USB1,0,55.0,FINESTEERING,2404,603435.000,03000800,cdba,18018;SOL_COMPUTED,PPP,51.07900064889,-114.13253490193,1113.8819,-16.6001,WGS84,0.0181,0.0139,0.0340,"TSTR",15.000,0.000,34,33,33,31,00,00,ff,37*a5922f4f
#BESTPOSA,USB1,0,54.0,FINESTEERING,2404,603436.000,03000800,cdba,18018;SOL_COMPUTED,PPP,51.07900063084,-114.13253490940,1113.8790,-16.6001,WGS84,0.0182,0.0140,0.0341,"TSTR",16.000,0.000,34,33,33,31,00,00,ff,37*30df63ee
#BESTPOSA,USB1,0,54.0,FINESTEERING,2404,603437.000,03000800,cdba,18018;SOL_COMPUTED,PPP,51.07900063453,-114.13253491283,1113.8780,-16.6001,WGS84,0.0184,0.0142,0.0345,"TSTR",17.000,0.000,34,33,33,31,00,00,ff,37*e8bbefde
#BESTPOSA,USB1,0,55.0,FINESTEERING,2404,603438.000,03000800,cdba,18018;SOL_COMPUTED,PPP,51.07900062509,-114.13253491018,1113.8800,-16.6001,WGS84,0.0187,0.0145,0.0351,"TSTR",18.000,0.000,34,33,33,31,00,00,ff,37*caa1e316
#BESTPOSA,USB1,0,55.0,FINESTEERING,2404,603439.000,03000800,cdba,18018;SOL_COMPUTED,PPP,51.07900061511,-114.13253492238,1113.8792,-16.6001,WGS84,0.0192,0.0148,0.0358,"TSTR",19.000,0.000,34,33,33,31,00,00,ff,37*521daf35
#BESTPOSA,USB1,0,54.0,FINESTEERING,2404,603440.000,03000800,cdba,18018;SOL_COMPUTED,PPP,51.07900062942,-114.13253493188,1113.8812,-16.6001,WGS84,0.0190,0.0147,0.0355,"TSTR",10.000,0.000,34,33,33,31,00,00,ff,37*fd884e4e
#BESTPOSA,USB1,0,51.5,FINESTEERING,2404,603441.000,03000800,cdba,18018;SOL_COMPUTED,PPP,51.07900062022,-114.13253495985,1113.8802,-16.6001,WGS84,0.0188,0.0145,0.0352,"TSTR",11.000,0.000,34,32,32,31,00,00,ff,37*97e7a23e
#BESTPOSA,USB1,0,49.0,FINESTEERING,2404,603442.000,03000800,cdba,18018;SOL_COMPUTED,PPP,51.07900062025,-114.13253494667,1113.8804,-16.6001,WGS84,0.0186,0.0143,0.0348,"TSTR",12.000,0.000,33,32,32,31,00,00,ff,37*e5ef87b4
#BESTPOSA,USB1,0,49.0,FINESTEERING,2404,603443.000,03000800,cdba,18018;SOL_COMPUTED,PPP,51.07900061478,-114.13253494287,1113.8808,-16.6001,WGS84,0.0183,0.0141,0.0344,"TSTR",13.000,0.000,34,32,32,31,00,00,ff,37*fe14e942
#BESTPOSA,USB1,0,56.0,FINESTEERING,2404,603444.000,03000800,cdba,18018;SOL_COMPUTED,PPP,51.07900060710,-114.13253493086,1113.8833,-16.6001,WGS84,0.0182,0.0140,0.0341,"TSTR",14.000,0.000,34,32,32,31,00,00,ff,37*18e78bb5
#BESTPOSA,USB1,0,56.0,FINESTEERING,2404,603445.000,03000800,cdba,18018;SOL_COMPUTED,PPP,51.07900062009,-114.13253494782,1113.8815,-16.6001,WGS84,0.0181,0.0139,0.0340,"TSTR",15.000,0.000,34,32,32,31,00,00,ff,37*e7c3a1b1
#BESTPOSA,USB1,0,55.5,FINESTEERING,2404,603446.000,03000800,cdba,18018;SOL_COMPUTED,PPP,51.07900060971,-114.13253495298,1113.8799,-16.6001,WGS84,0.0182,0.0140,0.0342,"TSTR",16.000,0.000,34,32,32,31,00,00,ff,37*e1e51ae1
#BESTPOSA,USB1,0,55.0,FINESTEERING,2404,603447.000,03000800,cdba,18018;SOL_COMPUTED,PPP,51.07900062058,-114.13253492462,1113.8809,-16.6001,WGS84,0.0185,0.0142,0.0346,"TSTR",17.000,0.000,34,32,32,31,00,00,ff,37*8794ce31
#BESTPOSA,USB1,0,55.0,FINESTEERING,2404,603448.000,03000800,cdba,18018;SOL_COMPUTED,PPP,51.07900062349,-114.13253491359,1113.8797,-16.6001,WGS84,0.0188,0.0145,0.0352,"TSTR",18.000,0.000,34,32,32,31,00,00,ff,37*d8509469
#BESTPOSA,USB1,0,54.5,FINESTEERING,2404,603449.000,03000800,cdba,18018;SOL_COMPUTED,PPP,51.07900061238,-114.13253490980,1113.8772,-16.6001,WGS84,0.0192,0.0148,0.0359,"TSTR",19.000,0.000,34,32,32,31,00,00,ff,37*04756317
#BESTPOSA,USB1,0,54.5,FINESTEERING,2404,603450.000,03000800,cdba,18018;SOL_COMPUTED,PPP,51.07900062347,-114.13253491274,1113.8769,-16.6001,WGS84,0.0196,0.0151,0.0367,"TSTR",20.000,0.000,34,32,32,31,00,00,ff,37*1c6ecceb
#BESTPOSA,USB1,0,54.5,FINESTEERING,2404,603451.000,03000800,cdba,18018;SOL_COMPUTED,PPP,51.07900060359,-114.13253490124,1113.8760,-16.6001,WGS84,0.0200,0.0154,0.0374,"TSTR",21.000,0.000,33,32,32,31,00,00,ff,37*c6cd348a
#BESTPOSA,USB1,0,55.0,FINESTEERING,2404,603452.000,03000800,cdba,18018;SOL_COMPUTED,PPP,51.07900059478,-114.13253490428,1113.8780,-16.6001,WGS84,0.0199,0.0153,0.0371,"TSTR",12.000,0.000,33,32,32,31,00,00,ff,37*7ae803c3
#BESTPOSA,USB1,0,44.0,FINESTEERING,2404,603453.000,03000800,cdba,18018;SOL_COMPUTED,PPP,51.07900060342,-114.13253490998,1113.8766,-16.6001,WGS84,0.0196,0.0151,0.0367,"TSTR",13.000,0.000,33,32,32,31,00,00,ff,37*91f33fbf
#BESTPOSA,USB1,0,44.0,FINESTEERING,2404,603454.000,03000800,cdba,18018;SOL_COMPUTED,PPP,51.07900060097,-114.13253491267,1113.8785,-16.6001,WGS84,0.0194,0.0149,0.0363,"TSTR",14.000,0.000,33,32,32,31,00,00,ff,37*754d2c9b
#BESTPOSA,USB1,0,54.0,FINESTEERING,2404,603455.000,03000800,cdba,18018;SOL_COMPUTED,PPP,51.07900061720,-114.13253489693,1113.8776,-16.6001,WGS84,0.0191,0.0147,0.0358,"TSTR",15.000,0.000,33,33,33,31,00,00,ff,37*01303c3f
#BESTPOSA,USB1,0,54.0,FINESTEERING,2404,603456.000,03000800,cdba,18018;SOL_COMPUTED,PPP,51.07900060339,-114.13253489685,1113.8777,-16.6001,WGS84,0.0189,0.0145,0.0355,"TSTR",16.000,0.000,33,33,33,31,00,00,ff,37*29a84717
#BESTPOSA,USB1,0,54.5,FINESTEERING,2404,603457.000,03000800,cdba,18018;SOL_COMPUTED,PPP,51.07900060709,-114.13253490898,1113.8778,-16.6001,WGS84,0.0188,0.0145,0.0353,"TSTR",17.000,0.000,33,33,33,31,00,00,ff,37*2acecf68
#BESTPOSA,USB1,0,54.5,FINESTEERING,2404,603458.000,03000800,cdba,18018;SOL_COMPUTED,PPP,51.07900060029,-114.13253491171,1113.8749,-16.6001,WGS84,0.0188,0.0145,0.0355,"TSTR",18.000,0.000,33,33,33,31,00,00,ff,37*50b968f8
#BESTPOSA,USB1,0,55.0,FINESTEERING,2404,603459.000,03000800,cdba,18018;SOL_COMPUTED,PPP,51.07900059276,-114.13253489541,1113.8755,-16.6001,WGS84,0.0190,0.0147,0.0358,"TSTR",19.000,0.000,34,33,33,31,00,00,ff,37*196774dd
#BESTPOSA,USB1,0,55.0,FINESTEERING,2404,603460.000,03000800,cdba,18018;SOL_COMPUTED,PPP,51.07900060443,-114.13253489254,1113.8776,-16.6001,WGS84,0.0193,0.0150,0.0364,"TSTR",20.000,0.000,33,32,32,31,00,00,ff,37*5ab9e5de
#BESTPOSA,USB1,0,54.0,FINESTEERING,2404,603461.000,03000800,cdba,18018;SOL_COMPUTED,PPP,51.07900059033,-114.13253489113,1113.8790,-16.6001,WGS84,0.0195,0.0151,0.0367,"TSTR",11.000,0.000,33,32,32,31,00,00,ff,37*ee704f4a
#BESTPOSA,USB1,0,54.0,FINESTEERING,2404,603462.000,03000800,cdba,18018;SOL_COMPUTED,PPP,51.07900058875,-114.13253489909,1113.8810,-16.6001,WGS84,0.0193,0.0150,0.0364,"TSTR",12.000,0.000,34,33,33,31,00,00,ff,37*1ef811e5
#BESTPOSA,USB1,0,46.0,FINESTEERING,2404,603463.000,03000800,cdba,18018;SOL_COMPUTED,PPP,51.07900058406,-114.13253490700,1113.8825,-16.6001,WGS84,0.0191,0.0148,0.0360,"TSTR",13.000,0.000,33,32,32,30,00,00,ff,37*92f55273
#BESTPOSA,USB1,0,46.0,FINESTEERING,2404,603464.000,03000800,cdba,18018;SOL_COMPUTED,PPP,51.07900059410,-114.13253491157,1113.8802,-16.6001,WGS84,0.0188,0.0146,0.0356,"TSTR",14.000,0.000,33,32,32,30,00,00,ff,37*35302fca
#BESTPOSA,USB1,0,54.0,FINESTEERING,2404,603465.000,03000800,cdba,18018;SOL_COMPUTED,PPP,51.07900060507,-114.13253491704,1113.8844,-16.6001,WGS84,0.0186,0.0144,0.0352,"TSTR",15.000,0.000,33,32,32,30,00,00,ff,37*88e6d653
#BESTPOSA,USB1,0,55.5,FINESTEERING,2404,603466.000,03000800,cdba,18018;SOL_COMPUTED,PPP,51.07900060646,-114.13253493729,1113.8876,-16.6001,WGS84,0.0185,0.0143,0.0349,"TSTR",16.000,0.000,33,32,32,30,00,00,ff,37*bf016efc
#BESTPOSA,USB1,0,54.5,FINESTEERING,2404,603467.000,03000800,cdba,18018;SOL_COMPUTED,PPP,51.07900060449,-114.13253494595,1113.8876,-16.6001,WGS84,0.0185,0.0144,0.0350,"TSTR",17.000,0.000,33,32,32,30,00,00,ff,37*485d15e3
#BESTPOSA,USB1,0,54.5,FINESTEERING,2404,603468.000,03000800,cdba,18018;SOL_COMPUTED,PPP,51.07900060289,-114.13253494070,1113.8894,-16.6001,WGS84,0.0187,0.0145,0.0353,"TSTR",18.000,0.000,33,32,32,30,00,00,ff,37*180254bb
#BESTPOSA,USB1,0,55.5,FINESTEERING,2404,603469.000,03000800,cdba,18018;SOL_COMPUTED,PPP,51.07900062567,-114.13253494496,1113.8890,-16.6001,WGS84,0.0190,0.0147,0.0359,"TSTR",19.000,0.000,33,32,32,31,00,00,ff,37*3b39a7f8
#BESTPOSA,USB1,0,53.0,FINESTEERING,2404,603470.000,03000800,cdba,18018;SOL_COMPUTED,PPP,51.07900062811,-114.13253493978,1113.8871,-16.6001,WGS84,0.0195,0.0150,0.0366,"TSTR",20.000,0.000,33,32,32,31,00,00,ff,37*ea9928a6
#BESTPOSA,USB1,0,53.0,FINESTEERING,2404,603471.000,03000800,cdba,18018;SOL_COMPUTED,PPP,51.07900063629,-114.13253494614,1113.8852,-16.6001,WGS84,0.0197,0.0152,0.0370,"TSTR",11.000,0.000,33,33,33,31,00,00,ff,37*ee112547
#BESTPOSA,USB1,0,55.0,FINESTEERING,2404,603472.000,03000800,cdba,18018;SOL_COMPUTED,PPP,51.07900062712,-114.13253494672,1113.8839,-16.6001,WGS84,0.0195,0.0150,0.0367,"TSTR",12.000,0.000,33,33,33,31,00,00,ff,37*d99ae635
#BESTPOSA,USB1,0,44.5,FINESTEERING,2404,603473.000,03000800,cdba,18018;SOL_COMPUTED,PPP,51.07900063053,-114.13253495278,1113.8847,-16.6001,WGS84,0.0193,0.0148,0.0363,"TSTR",13.000,0.000,34,33,33,31,00,00,ff,37*70dbf5bb
#BESTPOSA,USB1,0,44.5,FINESTEERING,2404,603474.000,03000800,cdba,18018;SOL_COMPUTED,PPP,51.07900063855,-114.13253494941,1113.8820,-16.6001,WGS84,0.0191,0.0147,0.0359,"TSTR",14.000,0.000,34,33,33,31,00,00,ff,37*a1494087
#BESTPOSA,USB1,0,55.0,FINESTEERING,2404,603475.000,03000800,cdba,18018;SOL_COMPUTED,PPP,51.07900064603,-114.13253493097,1113.8787,-16.6001,WGS84,0.0190,0.0145,0.0356,"TSTR",15.000,0.000,34,33,33,31,00,00,ff,37*a4fc9607
#BESTPOSA,USB1,0,55.0,FINESTEERING,2404,603476.000,03000800,cdba,18018;SOL_COMPUTED,PPP,51.07900064128,-114.13253494163,1113.8754,-16.6001,WGS84,0.0189,0.0144,0.0355,"TSTR",16.000,0.000,34,33,33,31,00,00,ff,37*1a3031da
#BESTPOSA,USB1,0,54.5,FINESTEERING,2404,603477.000,03000800,cdba,18018;SOL_COMPUTED,PPP,51.07900063572,-114.13253494209,1113.8721,-16.6001,WGS84,0.0190,0.0144,0.0356,"TSTR",17.000,0.000,34,33,33,31,00,00,ff,37*3122b13d
#BESTPOSA,USB1,0,54.5,FINESTEERING,2404,603478.000,03000800,cdba,18018;SOL_COMPUTED,PPP,51.07900063218,-114.13253492629,1113.8727,-16.6001,WGS84,0.0193,0.0145,0.0361,"TSTR",18.000,0.000,34,32,32,30,00,00,ff,37*4942b26d
#BESTPOSA,USB1,0,54.0,FINESTEERING,2404,603479.000,03000800,cdba,18018;SOL_COMPUTED,PPP,51.07900064683,-114.13253492797,1113.8715,-16.6001,WGS84,0.0197,0.0147,0.0367,"TSTR",19.000,0.000,34,32,32,30,00,00,ff,37*7a9e1cfe
#BESTPOSA,USB1,0,54.0,FINESTEERING,2404,603480.000,03000800,cdba,18018;SOL_COMPUTED,PPP,51.07900063857,-114.13253493102,1113.8698,-16.6001,WGS84,0.0201,0.0150,0.0374,"TSTR",20.000,0.000,34,32,32,30,00,00,ff,37*ea8703ea
#BESTPOSA,USB1,0,54.0,FINESTEERING,2404,603481.000,03000800,cdba,18018;SOL_COMPUTED,PPP,51.07900065152,-114.13253491004,1113.8717,-16.6001,WGS84,0.0204,0.0152,0.0378,"TSTR",11.000,0.000,34,32,32,30,00,00,ff,37*4b3f35ff
#BESTPOSA,USB1,0,54.0,FINESTEERING,2404,603482.000,03000800,cdba,18018;SOL_COMPUTED,PPP,51.07900063858,-114.13253492493,1113.8710,-16.6001,WGS84,0.0202,0.0150,0.0374,"TSTR",12.000,0.000,34,32,32,30,00,00,ff,37*22565842
#BESTPOSA,USB1,0,46.5,FINESTEERING,2404,603483.000,03000800,cdba,18018;SOL_COMPUTED,PPP,51.07900064255,-114.13253493581,1113.8675,-16.6001,WGS84,0.0200,0.0149,0.0370,"TSTR",13.000,0.000,34,32,32,30,00,00,ff,37*7f70dfa0
#BESTPOSA,USB1,0,46.5,FINESTEERING,2404,603484.000,03000800,cdba,18018;SOL_COMPUTED,PPP,51.07900063368,-114.13253493531,1113.8682,-16.6001,WGS84,0.0197,0.0147,0.0366,"TSTR",14.000,0.000,34,32,32,30,00,00,ff,37*131aeceb
#BESTPOSA,USB1,0,54.5,FINESTEERING,2404,603485.000,03000800,cdba,18018;SOL_COMPUTED,PPP,51.07900065067,-114.13253493507,1113.8683,-16.6001,WGS84,0.0195,0.0145,0.0362,"TSTR",15.000,0.000,34,32,32,30,00,00,ff,37*d2156be3
#BESTPOSA,USB1,0,54.5,FINESTEERING,2404,603486.000,03000800,cdba,18018;SOL_COMPUTED,PPP,51.07900065256,-114.13253494043,1113.8699,-16.6001,WGS84,0.0194,0.0144,0.0360,"TSTR",16.000,0.000,34,31,31,30,00,00,ff,37*95b466ab
#BESTPOSA,USB1,0,55.5,FINESTEERING,2404,603487.000,03000800,cdba,18018;SOL_COMPUTED,PPP,51.07900065814,-114.13253492810,1113.8715,-16.6001,WGS84,0.0194,0.0144,0.0360,"TSTR",17.000,0.000,34,31,31,30,00,00,ff,37*8257dc45
#BESTPOSA,USB1,0,55.5,FINESTEERING,2404,603488.000,03000800,cdba,18018;SOL_COMPUTED,PPP,51.07900064770,-114.13253491420,1113.8704,-16.6001,WGS84,0.0196,0.0145,0.0363,"TSTR",18.000,0.000,34,31,31,30,00,00,ff,37*ca1eea95
#BESTPOSA,USB1,0,56.0,FINESTEERING,2404,603489.000,03000800,cdba,18018;SOL_COMPUTED,PPP,51.07900066475,-114.13253491200,1113.8729,-16.6001,WGS84,0.0200,0.0148,0.0369,"TSTR",19.000,0.000,34,31,31,30,00,00,ff,37*a703d448
#BESTPOSA,USB1,0,54.5,FINESTEERING,2404,603490.000,03000800,cdba,18018;SOL_COMPUTED,PPP,51.07900066362,-114.13253491571,1113.8703,-16.6001,WGS84,0.0197,0.0146,0.0365,"TSTR",10.000,0.000,34,31,31,30,00,00,ff,37*61e1f313
#BESTPOSA,USB1,0,48.0,FINESTEERING,2404,603491.000,03000800,cdba,18018;SOL_COMPUTED,PPP,51.07900063846,-114.13253491492,1113.8685,-16.6001,WGS84,0.0195,0.0145,0.0361,"TSTR",11.000,0.000,34,31,31,30,00,00,ff,37*198d5a03
#BESTPOSA,USB1,0,48.0,FINESTEERING,2404,603492.000,03000800,cdba,18018;SOL_COMPUTED,PPP,51.07900062894,-114.13253491780,1113.8697,-16.6001,WGS84,0.0193,0.0143,0.0357,"TSTR",12.000,0.000,34,31,31,30,00,00,ff,37*d5254002
#BESTPOSA,USB1,0,50.5,FINESTEERING,2404,603493.000,03000800,cdba,18018;SOL_COMPUTED,PPP,51.07900062211,-114.13253491722,1113.8665,-16.6001,WGS84,0.0190,0.0141,0.0353,"TSTR",13.000,0.000,34,31,31,30,00,00,ff,37*d192c39f
#BESTPOSA,USB1,0,53.5,FINESTEERING,2404,603494.000,03000800,cdba,18018;SOL_COMPUTED,PPP,51.07900060081,-114.13253490952,1113.8707,-16.6001,WGS84,0.0189,0.0139,0.0350,"TSTR",14.000,0.000,34,31,31,30,00,00,ff,37*ca7e097a
#BESTPOSA,USB1,0,53.5,FINESTEERING,2404,603495.000,03000800,cdba,18018;SOL_COMPUTED,PPP,51.07900059056,-114.13253491446,1113.8718,-16.6001,WGS84,0.0188,0.0139,0.0349,"TSTR",15.000,0.000,34,31,31,30,00,00,ff,37*fcc21dd2
#BESTPOSA,USB1,0,55.0,FINESTEERING,2404,603496.000,03000800,cdba,18018;SOL_COMPUTED,PPP,51.07900059746,-114.13253490272,1113.8722,-16.6001,WGS84,0.0190,0.0140,0.0351,"TSTR",16.000,0.000,34,31,31,30,00,00,ff,37*c1d37ac0
#BESTPOSA,USB1,0,54.5,FINESTEERING,2404,603497.000,03000800,cdba,18018;SOL_COMPUTED,PPP,51.07900059299,-114.13253489396,1113.8736,-16.6001,WGS84,0.0193,0.0142,0.0355,"TSTR",17.000,0.000,34,31,31,30,00,00,ff,37*4ceefa6b
#BESTPOSA,USB1,0,54.0,FINESTEERING,2404,603498.000,03000800,cdba,18018;SOL_COMPUTED,PPP,51.07900059005,-114.13253489325,1113.8739,-16.6001,WGS84,0.0197,0.0145,0.0361,"TSTR",18.000,0.000,34,31,31,30,00,00,ff,37*4e54ea13
#BESTPOSA,USB1,0,54.0,FINESTEERING,2404,603499.000,03000800,cdba,18018;SOL_COMPUTED,PPP,51.07900057521,-114.13253488361,1113.8742,-16.6001,WGS84,0.0201,0.0148,0.0369,"TSTR",19.000,0.000,34,31,31,30,00,00,ff,37*d1f48a2c
#BESTPOSA,USB1,0,54.0,FINESTEERING,2404,603500.000,03000800,cdba,18018;SOL_COMPUTED,PPP,51.07900057997,-114.13253489450,1113.8748,-16.6001,WGS84,0.0205,0.0151,0.0376,"TSTR",20.000,0.000,34,31,31,30,00,00,ff,37*fefe2f10
#BESTPOSA,USB1,0,54.0,FINESTEERING,2404,603501.000,03000800,cdba,18018;SOL_COMPUTED,PPP,51.07900059593,-114.13253489769,1113.8775,-16.6001,WGS84,0.0204,0.0150,0.0373,"TSTR",11.000,0.000,33,31,31,30,00,00,ff,37*8d5a156d
#BESTPOSA,USB1,0,44.0,FINESTEERING,2404,603502.000,03000800,cdba,18018;SOL_COMPUTED,PPP,51.07900058392,-114.13253489640,1113.8779,-16.6001,WGS84,0.0202,0.0148,0.0369,"TSTR",12.000,0.000,33,31,31,30,00,00,ff,37*44ed6872
#BESTPOSA,USB1,0,44.0,FINESTEERING,2404,603503.000,03000800,cdba,18018;SOL_COMPUTED,PPP,51.07900059369,-114.13253489530,1113.8803,-16.6001,WGS84,0.0199,0.0146,0.0365,"TSTR",13.000,0.000,33,31,31,30,00,00,ff,37*4a612ea6
#BESTPOSA,USB1,0,52.5,FINESTEERING,2404,603504.000,03000800,cdba,18018;SOL_COMPUTED,PPP,51.07900060484,-114.13253489369,1113.8817,-16.6001,WGS84,0.0197,0.0144,0.0361,"TSTR",14.000,0.000,33,31,31,30,00,00,ff,37*cb4c6ac6
#BESTPOSA,USB1,0,54.5,FINESTEERING,2404,603505.000,03000800,cdba,18018;SOL_COMPUTED,PPP,51.07900061670,-114.13253489483,1113.8836,-16.6001,WGS84,0.0195,0.0143,0.0357,"TSTR",15.000,0.000,33,31,31,30,00,00,ff,37*392a9c6c
#BESTPOSA,USB1,0,55.0,FINESTEERING,2404,603506.000,03000800,cdba,18018;SOL_COMPUTED,PPP,51.07900062059,-114.13253490190,1113.8848,-16.6001,WGS84,0.0194,0.0142,0.0356,"TSTR",16.000,0.000,33,31,31,30,00,00,ff,37*424d7207
#BESTPOSA,USB1,0,55.0,FINESTEERING,2404,603507.000,03000800,cdba,18018;SOL_COMPUTED,PPP,51.07900062527,-114.13253489679,1113.8843,-16.6001,WGS84,0.0195,0.0143,0.0358,"TSTR",17.000,0.000,33,32,32,30,00,00,ff,37*307db274
#BESTPOSA,USB1,0,55.0,FINESTEERING,2404,603508.000,03000800,cdba,18018;SOL_COMPUTED,PPP,51.07900064324,-114.13253489364,1113.8861,-16.6001,WGS84,0.0197,0.0145,0.0362,"TSTR",18.000,0.000,33,32,32,31,00,00,ff,37*0030d7c4
#BESTPOSA,USB1,0,55.0,FINESTEERING,2404,603509.000,03000800,cdba,18018;SOL_COMPUTED,PPP,51.07900063990,-114.13253489121,1113.8881,-16.6001,WGS84,0.0201,0.0147,0.0368,"TSTR",19.000,0.000,33,32,32,31,00,00,ff,37*c98d390f
#BESTPOSA,USB1,0,55.0,FINESTEERING,2404,603510.000,03000800,cdba,18018;SOL_COMPUTED,PPP,51.07900065909,-114.13253488641,1113.8884,-16.6001,WGS84,0.0203,0.0149,0.0371,"TSTR",10.000,0.000,33,32,32,31,00,00,ff,37*fd2288fe
#BESTPOSA,USB1,0,53.0,FINESTEERING,2404,603511.000,03000800,cdba,18018;SOL_COMPUTED,PPP,51.07900064975,-114.13253487594,1113.8887,-16.6001,WGS84,0.0200,0.0147,0.0367,"TSTR",11.000,0.000,33,32,32,31,00,00,ff,37*72348a5f
#BESTPOSA,USB1,0,47.5,FINESTEERING,2404,603512.000,03000800,cdba,18018;SOL_COMPUTED,PPP,51.07900065800,-114.13253489977,1113.8899,-16.6001,WGS84,0.0198,0.0145,0.0363,"TSTR",12.000,0.000,32,32,32,31,00,00,ff,37*83f671ea
#BESTPOSA,USB1,0,47.5,FINESTEERING,2404,603513.000,03000800,cdba,18018;SOL_COMPUTED,PPP,51.07900066248,-114.13253492025,1113.8884,-16.6001,WGS84,0.0195,0.0143,0.0358,"TSTR",13.000,0.000,32,32,32,31,00,00,ff,37*0f305fc2
#BESTPOSA,USB1,0,54.0,FINESTEERING,2404,603514.000,03000800,cdba,18018;SOL_COMPUTED,PPP,51.07900065806,-114.13253491515,1113.8888,-16.6001,WGS84,0.0192,0.0141,0.0354,"TSTR",14.000,0.000,33,32,32,31,00,00,ff,37*775fb09e
#BESTPOSA,USB1,0,54.0,FINESTEERING,2404,603515.000,03000800,cdba,18018;SOL_COMPUTED,PPP,51.07900065996,-114.13253493829,1113.8851,-16.6001,WGS84,0.0190,0.0140,0.0351,"TSTR",15.000,0.000,33,32,32,31,00,00,ff,37*725b3824
#BESTPOSA,USB1,0,54.5,FINESTEERING,2404,603516.000,03000800,cdba,18018;SOL_COMPUTED,PPP,51.07900066937,-114.13253493850,1113.8827,-16.6001,WGS84,0.0190,0.0140,0.0351,"TSTR",16.000,0.000,33,32,32,31,00,00,ff,37*663eb4c9
#BESTPOSA,USB1,0,54.5,FINESTEERING,2404,603517.000,03000800,cdba,18018;SOL_COMPUTED,PPP,51.07900068684,-114.13253493686,1113.8828,-16.6001,WGS84,0.0191,0.0142,0.0354,"TSTR",17.000,0.000,33,32,32,31,00,00,ff,37*961164fe
#BESTPOSA,USB1,0,54.5,FINESTEERING,2404,603518.000,03000800,cdba,18018;SOL_COMPUTED,PPP,51.07900067966,-114.13253493184,1113.8817,-16.6001,WGS84,0.0194,0.0144,0.0359,"TSTR",18.000,0.000,34,32,32,31,00,00,ff,37*e105fab3
#BESTPOSA,USB1,0,55.5,FINESTEERING,2404,603519.000,03000800,cdba,18018;SOL_COMPUTED,PPP,51.07900065771,-114.13253493653,1113.8809,-16.6001,WGS84,0.0197,0.0147,0.0365,"TSTR",19.000,0.000,34,32,32,31,00,00,ff,37*11e6915a
#BESTPOSA,USB1,0,54.5,FINESTEERING,2404,603520.000,03000800,cdba,18018;SOL_COMPUTED,PPP,51.07900066359,-114.13253494604,1113.8810,-16.6001,WGS84,0.0201,0.0150,0.0372,"TSTR",20.000,0.000,33,32,32,31,00,00,ff,37*d58fa2ab
#BESTPOSA,USB1,0,54.5,FINESTEERING,2404,603521.000,03000800,cdba,18018;SOL_COMPUTED,PPP,51.07900065534,-114.13253494139,1113.8784,-16.6001,WGS84,0.0200,0.0149,0.0369,"TSTR",11.000,0.000,33,31,31,30,00,00,ff,37*7556ce6c
#BESTPOSA,USB1,0,48.0,FINESTEERING,2404,603522.000,03000800,cdba,18018;SOL_COMPUTED,PPP,51.07900063378,-114.13253494075,1113.8765,-16.6001,WGS84,0.0198,0.0147,0.0366,"TSTR",12.000,0.000,33,32,32,31,00,00,ff,37*f5889e78
#BESTPOSA,USB1,0,48.0,FINESTEERING,2404,603523.000,03000800,cdba,18018;SOL_COMPUTED,PPP,51.07900065484,-114.13253493968,1113.8759,-16.6001,WGS84,0.0195,0.0145,0.0361,"TSTR",13.000,0.000,33,32,32,31,00,00,ff,37*87e94b08
#BESTPOSA,USB1,0,49.5,FINESTEERING,2404,603524.000,03000800,cdba,18018;SOL_COMPUTED,PPP,51.07900063943,-114.13253492443,1113.8711,-16.6001,WGS84,0.0192,0.0143,0.0356,"TSTR",14.000,0.000,33,32,32,31,00,00,ff,37*2d3e6698
#BESTPOSA,USB1,0,53.5,FINESTEERING,2404,603525.000,03000800,cdba,18018;SOL_COMPUTED,PPP,51.07900061328,-114.13253491635,1113.8689,-16.6001,WGS84,0.0190,0.0142,0.0353,"TSTR",15.000,0.000,33,32,32,31,00,00,ff,37*1025dc4a
#BESTPOSA,USB1,0,54.5,FINESTEERING,2404,603526.000,03000800,cdba,18018;SOL_COMPUTED,PPP,51.07900061533,-114.13253492150,1113.8682,-16.6001,WGS84,0.0189,0.0141,0.0351,"TSTR",16.000,0.000,32,32,32,31,00,00,ff,37*c24e6f86
#BESTPOSA,USB1,0,54.5,FINESTEERING,2404,603527.000,03000800,cdba,18018;SOL_COMPUTED,PPP,51.07900058284,-114.13253490680,1113.8672,-16.6001,WGS84,0.0190,0.0142,0.0352,"TSTR",17.000,0.000,32,32,32,31,00,00,ff,37*792efd21
#BESTPOSA,USB1,0,54.5,FINESTEERING,2404,603528.000,03000800,cdba,18018;SOL_COMPUTED,PPP,51.07900058757,-114.13253490110,1113.8665,-16.6001,WGS84,0.0192,0.0144,0.0356,"TSTR",18.000,0.000,32,32,32,31,00,00,ff,37*2ef2ae4b
#BESTPOSA,USB1,0,55.5,FINESTEERING,2404,603529.000,03000800,cdba,18018;SOL_COMPUTED,PPP,51.07900057032,-114.13253489328,1113.8661,-16.6001,WGS84,0.0189,0.0142,0.0351,"TSTR",9.000,0.000,32,32,32,31,00,00,ff,37*4cb38fea
#BESTPOSA,USB1,0,44.0,FINESTEERING,2404,603530.000,03000800,cdba,18018;SOL_COMPUTED,PPP,51.07900057202,-114.13253489712,1113.8666,-16.6001,WGS84,0.0187,0.0141,0.0348,"TSTR",10.000,0.000,33,32,32,31,00,00,ff,37*aa750c95
#BESTPOSA,USB1,0,44.0,FINESTEERING,2404,603531.000,03000800,cdba,18018;SOL_COMPUTED,PPP,51.07900058518,-114.13253489814,1113.8694,-16.6001,WGS84,0.0185,0.0139,0.0344,"TSTR",11.000,0.000,33,32,32,31,00,00,ff,37*c3fc09d5
#BESTPOSA,USB1,0,54.0,FINESTEERING,2404,603532.000,03000800,cdba,18018;SOL_COMPUTED,PPP,51.07900059557,-114.13253490642,1113.8679,-16.6001,WGS84,0.0182,0.0137,0.0340,"TSTR",12.000,0.000,34,32,32,31,00,00,ff,37*ab53bfbc
#BESTPOSA,USB1,0,54.0,FINESTEERING,2404,603533.000,03000800,cdba,18018;SOL_COMPUTED,PPP,51.07900058968,-114.13253489276,1113.8719,-16.6001,WGS84,0.0180,0.0136,0.0336,"TSTR",13.000,0.000,33,32,32,31,00,00,ff,37*9945d9f6
#BESTPOSA,USB1,0,54.5,FINESTEERING,2404,603534.000,03000800,cdba,18018;SOL_COMPUTED,PPP,51.07900060252,-114.13253489474,1113.8737,-16.6001,WGS84,0.0180,0.0135,0.0336,"TSTR",14.000,0.000,33,32,32,31,00,00,ff,37*9347cc3a
#BESTPOSA,USB1,0,54.5,FINESTEERING,2404,603535.000,03000800,cdba,18018;SOL_COMPUTED,PPP,51.07900060480,-114.13253489000,1113.8707,-16.6001,WGS84,0.0181,0.0136,0.0338,"TSTR",15.000,0.000,33,32,32,31,00,00,ff,37*8751702a
