#BESTPOSA,USB1,0,51.5,FINESTEERING,2404,603708.000,03000800,cdba,18018;SOL_COMPUTED,NARROW_INT,51.07899648054,-114.13251415515,1114.3046,-16.6000,WGS84,0.0132,0.0092,0.0216,"3920",1.000,0.000,33,32,32,31,00,21,7f,37*899a8b7d
#BESTPOSA,USB1,0,53.0,FINESTEERING,2404,603709.000,03000800,cdba,18018;SOL_COMPUTED,NARROW_INT,51.07899648741,-114.13251416988,1114.3047,-16.6000,WGS84,0.0129,0.0090,0.0212,"3920",1.000,0.000,33,32,32,31,00,21,7f,37*31a21cdb
#BESTPOSA,USB1,0,50.0,FINESTEERING,2404,603710.000,03000800,cdba,18018;SOL_COMPUTED,NARROW_INT,51.07899647582,-114.13251414403,1114.3053,-16.6000,WGS84,0.0127,0.0089,0.0209,"3920",1.000,0.000,33,32,32,31,00,21,7f,37*1a6eeb19
#BESTPOSA,USB1,0,43.0,FINESTEERING,2404,603711.000,03000800,cdba,18018;SOL_COMPUTED,NARROW_INT,51.07899647755,-114.13251415629,1114.3032,-16.6000,WGS84,0.0125,0.0087,0.0207,"3920",1.000,0.000,33,32,32,31,00,21,7f,37*751ecc94
#BESTPOSA,USB1,0,43.0,FINESTEERING,2404,603712.000,03000800,cdba,18018;SOL_COMPUTED,NARROW_INT,51.07899647186,-114.13251416504,1114.3012,-16.6000,WGS84,0.0123,0.0086,0.0205,"3920",1.000,0.000,33,31,31,30,00,21,7f,37*6b940bae
#BESTPOSA,USB1,0,51.5,FINESTEERING,2404,603713.000,03000800,cdba,18018;SOL_COMPUTED,NARROW_INT,51.07899646038,-114.13251415402,1114.2999,-16.6000,WGS84,0.0121,0.0085,0.0203,"3920",1.000,0.000,33,32,32,31,00,21,7f,37*91421706
#BESTPOSA,USB1,0,45.5,FINESTEERING,2404,603714.000,03000800,cdba,18018;SOL_COMPUTED,NARROW_INT,51.07899643788,-114.13251415303,1114.3014,-16.6000,WGS84,0.0120,0.0084,0.0202,"3920",1.000,0.000,33,32,32,31,00,21,7f,37*5d30b8e9
#BESTPOSA,USB1,0,45.5,FINESTEERING,2404,603715.000,03000800,cdba,18018;SOL_COMPUTED,NARROW_INT,51.07899644724,-114.13251415141,1114.3012,-16.6000,WGS84,0.0126,0.0088,0.0213,"3920",2.000,0.000,33,32,32,31,00,21,ff,37*03eadd66
#BESTPOSA,USB1,0,52.0,FINESTEERING,2404,603716.000,03000800,cdba,18018;SOL_COMPUTED,NARROW_INT,51.07899644670,-114.13251417756,1114.2995,-16.6000,WGS84,0.0133,0.0093,0.0218,"3920",1.000,0.000,33,32,32,31,00,21,7f,37*a8b3cd86
#BESTPOSA,USB1,0,53.0,FINESTEERING,2404,603717.000,03000800,cdba,18018;SOL_COMPUTED,NARROW_INT,51.07899644100,-114.13251417796,1114.2970,-16.6000,WGS84,0.0139,0.0097,0.0229,"3920",2.000,0.000,33,32,32,31,00,21,ff,37*cbb75fe8
#BESTPOSA,USB1,0,53.0,FINESTEERING,2404,603718.000,03000800,cdba,18018;SOL_COMPUTED,NARROW_INT,51.07899643584,-114.13251418168,1114.2987,-16.6000,WGS84,0.0144,0.0101,0.0239,"3920",3.000,0.000,33,32,32,31,00,21,ff,37*39b8cc8e
#BESTPOSA,USB1,0,53.0,FINESTEERING,2404,603719.000,03000800,cdba,18018;SOL_COMPUTED,NARROW_INT,51.07899642193,-114.13251415850,1114.2991,-16.6000,WGS84,0.0149,0.0105,0.0249,"3920",4.000,0.000,34,32,32,31,00,21,ff,37*4a55dd2f
#BESTPOSA,USB1,0,54.0,FINESTEERING,2404,603720.000,03000800,cdba,18018;SOL_COMPUTED,NARROW_INT,51.07899642315,-114.13251415917,1114.2983,-16.6000,WGS84,0.0154,0.0109,0.0258,"3920",5.000,0.000,34,32,32,31,00,21,ff,37*c637b69d
#BESTPOSA,USB1,0,44.5,FINESTEERING,2404,603721.000,03000800,cdba,18018;SOL_COMPUTED,NARROW_INT,51.07899641471,-114.13251417653,1114.2993,-16.6000,WGS84,0.0159,0.0112,0.0268,"3920",6.000,0.000,34,31,31,30,00,21,ff,37*650f74dd
#BESTPOSA,USB1,0,44.5,FINESTEERING,2404,603722.000,03000800,cdba,18018;SOL_COMPUTED,NARROW_INT,51.07899640781,-114.13251416267,1114.3022,-16.6000,WGS84,0.0143,0.0100,0.0235,"3920",2.000,0.000,34,32,32,31,00,21,ff,37*f3d1e4fc
#BESTPOSA,USB1,0,53.0,FINESTEERING,2404,603723.000,03000800,cdba,18018;SOL_COMPUTED,NARROW_INT,51.07899643665,-114.13251416219,1114.3043,-16.6000,WGS84,0.0131,0.0092,0.0218,"3920",1.000,0.000,34,32,32,31,00,21,7f,37*5a1bc1e1
#BESTPOSA,USB1,0,49.0,FINESTEERING,2404,603724.000,03000800,cdba,18018;SOL_COMPUTED,NARROW_INT,51.07899644528,-114.13251417341,1114.3064,-16.6000,WGS84,0.0123,0.0086,0.0205,"3920",1.000,0.000,34,32,32,31,00,21,7f,37*38741ec9
#BESTPOSA,USB1,0,49.0,FINESTEERING,2404,603725.000,03000800,cdba,18018;SOL_COMPUTED,NARROW_INT,51.07899642019,-114.13251415989,1114.3015,-16.6000,WGS84,0.0126,0.0088,0.0212,"3920",1.000,0.000,34,32,32,31,00,21,7f,37*be21dc56
#BESTPOSA,USB1,0,50.0,FINESTEERING,2404,603726.000,03000800,cdba,18018;SOL_COMPUTED,NARROW_INT,51.07899641280,-114.13251416150,1114.3049,-16.6000,WGS84,0.0132,0.0092,0.0223,"3920",2.000,0.000,34,32,32,31,00,21,ff,37*b6285d49
#BESTPOSA,USB1,0,50.0,FINESTEERING,2404,603727.000,03000800,cdba,18018;SOL_COMPUTED,NARROW_INT,51.07899642752,-114.13251416203,1114.2990,-16.6000,WGS84,0.0114,0.0080,0.0196,"3920",1.000,0.000,34,32,32,31,00,21,7f,37*5ac6b6f1
#BESTPOSA,USB1,0,49.0,FINESTEERING,2404,603728.000,03000800,cdba,18018;SOL_COMPUTED,NARROW_INT,51.07899643908,-114.13251414993,1114.3041,-16.6000,WGS84,0.0120,0.0083,0.0204,"3920",1.000,0.000,34,31,31,30,00,21,7f,37*6448e188
#BESTPOSA,USB1,0,49.0,FINESTEERING,2404,603729.000,03000800,cdba,18018;SOL_COMPUTED,NARROW_INT,51.07899643350,-114.13251417400,1114.3052,-16.6000,WGS84,0.0111,0.0078,0.0191,"3920",1.000,0.000,34,32,32,31,00,21,7f,37*42b1fb1f
#BESTPOSA,USB1,0,40.0,FINESTEERING,2404,603730.000,03000800,cdba,18018;SOL_COMPUTED,NARROW_INT,51.07899643710,-114.13251416463,1114.3000,-16.6000,WGS84,0.0117,0.0082,0.0201,"3920",1.000,0.000,34,32,32,31,00,21,7f,37*17bc30fa
#BESTPOSA,USB1,0,40.0,FINESTEERING,2404,603731.000,03000800,cdba,18018;SOL_COMPUTED,NARROW_INT,51.07899644458,-114.13251416544,1114.3001,-16.6000,WGS84,0.0109,0.0076,0.0188,"3920",1.000,0.000,34,32,32,31,00,21,7f,37*83a063fd
#BESTPOSA,USB1,0,52.0,FINESTEERING,2404,603732.000,03000800,cdba,18018;SOL_COMPUTED,NARROW_INT,51.07899646621,-114.13251417798,1114.3013,-16.6000,WGS84,0.0109,0.0076,0.0188,"3920",1.000,0.000,34,31,31,30,00,21,7f,37*13c0fc35
#BESTPOSA,USB1,0,52.0,FINESTEERING,2404,603733.000,03000800,cdba,18018;SOL_COMPUTED,NARROW_INT,51.07899644789,-114.13251415987,1114.3013,-16.6000,WGS84,0.0115,0.0080,0.0197,"3920",1.000,0.000,34,31,31,30,00,21,7f,37*15838d80
#BESTPOSA,USB1,0,49.0,FINESTEERING,2404,603734.000,03000800,cdba,18018;SOL_COMPUTED,NARROW_INT,51.07899646775,-114.13251414865,1114.3006,-16.6000,WGS84,0.0113,0.0079,0.0195,"3920",1.000,0.000,34,31,31,30,00,21,7f,37*4548772d
#BESTPOSA,USB1,0,49.0,FINESTEERING,2404,603735.000,03000800,cdba,18018;SOL_COMPUTED,NARROW_INT,51.07899646256,-114.13251417746,1114.3024,-16.6000,WGS84,0.0105,0.0074,0.0183,"3920",1.000,0.000,34,31,31,30,00,21,7f,37*62548b89
#BESTPOSA,USB1,0,51.0,FINESTEERING,2404,603736.000,03000800,cdba,18018;SOL_COMPUTED,NARROW_INT,51.07899645481,-114.13251418440,1114.3000,-16.6000,WGS84,0.0111,0.0079,0.0195,"3920",2.000,0.000,34,31,31,30,00,21,ff,37*731ebcff
#BESTPOSA,USB1,0,51.0,FINESTEERING,2404,603737.000,03000800,cdba,18018;SOL_COMPUTED,NARROW_INT,51.07899644811,-114.13251416417,1114.2982,-16.6000,WGS84,0.0106,0.0074,0.0183,"3920",1.000,0.000,34,31,31,30,00,21,7f,37*598a3710
#BESTPOSA,USB1,0,49.5,FINESTEERING,2404,603738.000,03000800,cdba,18018;SOL_COMPUTED,NARROW_INT,51.07899646243,-114.13251417353,1114.3008,-16.6000,WGS84,0.0105,0.0074,0.0182,"3920",1.000,0.000,34,31,31,30,00,21,7f,37*abdee519
#BESTPOSA,USB1,0,49.5,FINESTEERING,2404,603739.000,03000800,cdba,18018;SOL_COMPUTED,NARROW_INT,51.07899647403,-114.13251420050,1114.3028,-16.6000,WGS84,0.0105,0.0073,0.0181,"3920",1.000,0.000,35,31,31,30,00,21,7f,37*9cac5f77
#BESTPOSA,USB1,0,49.0,FINESTEERING,2404,603740.000,03000800,cdba,18018;SOL_COMPUTED,NARROW_INT,51.07899648005,-114.13251419042,1114.2998,-16.6000,WGS84,0.0105,0.0074,0.0181,"3920",1.000,0.000,35,31,31,30,00,21,7f,37*28a1d586
#BESTPOSA,USB1,0,41.5,FINESTEERING,2404,603741.000,03000800,cdba,18018;SOL_COMPUTED,NARROW_INT,51.07899647061,-114.13251415980,1114.3031,-16.6000,WGS84,0.0111,0.0077,0.0190,"3920",1.000,0.000,34,31,31,30,00,21,7f,37*946f76a9
#BESTPOSA,USB1,0,41.5,FINESTEERING,2404,603742.000,03000800,cdba,18018;SOL_COMPUTED,NARROW_INT,51.07899646541,-114.13251417630,1114.3034,-16.6000,WGS84,0.0103,0.0072,0.0178,"3920",1.000,0.000,34,31,31,30,00,21,7f,37*ca89d9ce
#BESTPOSA,USB1,0,49.0,FINESTEERING,2404,603743.000,03000800,cdba,18018;SOL_COMPUTED,NARROW_INT,51.07899646247,-114.13251418544,1114.3030,-16.6000,WGS84,0.0103,0.0073,0.0178,"3920",1.000,0.000,34,31,31,30,00,21,7f,37*92855750
#BESTPOSA,USB1,0,49.0,FINESTEERING,2404,603744.000,03000800,cdba,18018;SOL_COMPUTED,NARROW_INT,51.07899647593,-114.13251416742,1114.3005,-16.6000,WGS84,0.0107,0.0075,0.0181,"3920",1.000,0.000,34,31,31,30,00,21,7f,37*cc8f0b51
#BESTPOSA,USB1,0,52.5,FINESTEERING,2404,603745.000,03000800,cdba,18018;SOL_COMPUTED,NARROW_INT,51.07899645549,-114.13251416519,1114.3042,-16.6000,WGS84,0.0111,0.0078,0.0189,"3920",1.000,0.000,34,31,31,30,00,21,7f,37*3b3ff353
#BESTPOSA,USB1,0,49.5,FINESTEERING,2404,603746.000,03000800,cdba,18018;SOL_COMPUTED,NARROW_INT,51.07899646326,-114.13251418180,1114.3049,-16.6000,WGS84,0.0104,0.0073,0.0178,"3920",1.000,0.000,34,31,31,30,00,21,7f,37*585628c1
#BESTPOSA,USB1,0,49.5,FINESTEERING,2404,603747.000,03000800,cdba,18018;SOL_COMPUTED,NARROW_INT,51.07899645261,-114.13251418254,1114.3021,-16.6000,WGS84,0.0105,0.0073,0.0178,"3920",1.000,0.000,34,31,31,30,00,21,7f,37*94f86ff5
#BESTPOSA,USB1,0,51.0,FINESTEERING,2404,603748.000,03000800,cdba,18018;SOL_COMPUTED,NARROW_INT,51.07899645525,-114.13251418345,1114.3038,-16.6000,WGS84,0.0104,0.0073,0.0178,"3920",1.000,0.000,34,31,31,30,00,21,7f,37*228ba9f7
#BESTPOSA,USB1,0,51.0,FINESTEERING,2404,603749.000,03000800,cdba,18018;SOL_COMPUTED,NARROW_INT,51.07899643890,-114.13251418077,1114.3046,-16.6000,WGS84,0.0103,0.0073,0.0177,"3920",1.000,0.000,34,31,31,30,00,21,7f,37*827d0e25
#BESTPOSA,USB1,0,41.5,FINESTEERING,2404,603750.000,03000800,cdba,18018;SOL_COMPUTED,NARROW_INT,51.07899646345,-114.13251417289,1114.3021,-16.6000,WGS84,0.0102,0.0071,0.0174,"3920",1.000,0.000,34,32,32,31,00,21,7f,37*dde61ecf
#BESTPOSA,USB1,0,41.5,FINESTEERING,2404,603751.000,03000800,cdba,18018;SOL_COMPUTED,NARROW_INT,51.07899644242,-114.13251417010,1114.2996,-16.6000,WGS84,0.0100,0.0070,0.0172,"3920",1.000,0.000,34,32,32,31,00,21,7f,37*b5d2376e
#BESTPOSA,USB1,0,51.5,FINESTEERING,2404,603752.000,03000800,cdba,18018;SOL_COMPUTED,NARROW_INT,51.07899644692,-114.13251419010,1114.2996,-16.6000,WGS84,0.0099,0.0069,0.0171,"3920",1.000,0.000,34,32,32,31,00,21,7f,37*34cf668c
#BESTPOSA,USB1,0,49.5,FINESTEERING,2404,603753.000,03000800,cdba,18018;SOL_COMPUTED,NARROW_INT,51.07899645811,-114.13251417193,1114.3023,-16.6000,WGS84,0.0098,0.0068,0.0169,"3920",1.000,0.000,35,32,32,31,00,21,7f,37*94a648ff
#BESTPOSA,USB1,0,49.5,FINESTEERING,2404,603754.000,03000800,cdba,18018;SOL_COMPUTED,NARROW_INT,51.07899643199,-114.13251416118,1114.3014,-16.6000,WGS84,0.0097,0.0068,0.0167,"3920",1.000,0.000,35,32,32,31,00,21,7f,37*4e177815
#BESTPOSA,USB1,0,50.0,FINESTEERING,2404,603755.000,03000800,cdba,18018;SOL_COMPUTED,NARROW_INT,51.07899643780,-114.13251415581,1114.3027,-16.6000,WGS84,0.0096,0.0067,0.0166,"3920",1.000,0.000,35,32,32,31,00,21,7f,37*3990d2cb
#BESTPOSA,USB1,0,49.5,FINESTEERING,2404,603756.000,03000800,cdba,18018;SOL_COMPUTED,NARROW_INT,51.07899644849,-114.13251418867,1114.3000,-16.6000,WGS84,0.0095,0.0066,0.0164,"3920",1.000,0.000,35,32,32,31,00,21,7f,37*a9f65b54
#BESTPOSA,USB1,0,49.5,FINESTEERING,2404,603757.000,03000800,cdba,18018;SOL_COMPUTED,NARROW_INT,51.07899643830,-114.13251418206,1114.3034,-16.6000,WGS84,0.0094,0.0065,0.0163,"3920",1.000,0.000,35,33,33,32,00,21,7f,37*f2ec4baf
#BESTPOSA,USB1,0,49.0,FINESTEERING,2404,603758.000,03000800,cdba,18018;SOL_COMPUTED,NARROW_INT,51.07899643805,-114.13251417141,1114.3029,-16.6000,WGS84,0.0093,0.0065,0.0162,"3920",1.000,0.000,35,33,33,32,00,21,7f,37*8f98a0fb
#BESTPOSA,USB1,0,49.0,FINESTEERING,2404,603759.000,03000800,cdba,18018;SOL_COMPUTED,NARROW_INT,51.07899643907,-114.13251415627,1114.3064,-16.6000,WGS84,0.0092,0.0064,0.0161,"3920",1.000,0.000,34,32,32,31,00,21,7f,37*6a715ec7
#BESTPOSA,USB1,0,50.5,FINESTEERING,2404,603760.000,03000800,cdba,18018;SOL_COMPUTED,NARROW_INT,51.07899644768,-114.13251418193,1114.3029,-16.6000,WGS84,0.0091,0.0064,0.0160,"3920",1.000,0.000,34,32,32,31,00,21,7f,37*5440b915
#BESTPOSA,USB1,0,42.0,FINESTEERING,2404,603761.000,03000800,cdba,18018;SOL_COMPUTED,NARROW_INT,51.07899643378,-114.13251415293,1114.3054,-16.6000,WGS84,0.0090,0.0063,0.0158,"3920",1.000,0.000,34,31,31,30,00,21,7f,37*a705821b
#BESTPOSA,USB1,0,42.0,FINESTEERING,2404,603762.000,03000800,cdba,18018;SOL_COMPUTED,NARROW_INT,51.07899644881,-114.13251415892,1114.3034,-16.6000,WGS84,0.0089,0.0063,0.0157,"3920",1.000,0.000,34,32,32,31,00,21,7f,37*d3db4560
#BESTPOSA,USB1,0,53.0,FINESTEERING,2404,603763.000,03000800,cdba,18018;SOL_COMPUTED,NARROW_INT,51.07899643303,-114.13251416315,1114.3026,-16.6000,WGS84,0.0089,0.0062,0.0156,"3920",1.000,0.000,34,32,32,31,00,21,7f,37*a84adf6f
#BESTPOSA,USB1,0,51.5,FINESTEERING,2404,603764.000,03000800,cdba,18018;SOL_COMPUTED,NARROW_INT,51.07899643815,-114.13251415933,1114.3092,-16.6000,WGS84,0.0088,0.0062,0.0155,"3920",1.000,0.000,34,32,32,31,00,21,7f,37*b4362352
#BESTPOSA,USB1,0,51.5,FINESTEERING,2404,603765.000,03000800,cdba,18018;SOL_COMPUTED,NARROW_INT,51.07899645832,-114.13251418171,1114.3070,-16.6000,WGS84,0.0088,0.0061,0.0155,"3920",1.000,0.000,34,32,32,31,00,21,7f,37*41958e37
#BESTPOSA,USB1,0,52.5,FINESTEERING,2404,603766.000,03000800,cdba,18018;SOL_COMPUTED,NARROW_INT,51.07899642874,-114.13251416686,1114.3055,-16.6000,WGS84,0.0087,0.0061,0.0154,"3920",1.000,0.000,34,32,32,31,00,21,7f,37*f36da6c1
#BESTPOSA,USB1,0,52.5,FINESTEERING,2404,603767.000,03000800,cdba,18018;SOL_COMPUTED,NARROW_INT,51.07899644876,-114.13251416754,1114.3035,-16.6000,WGS84,0.0086,0.0060,0.0153,"3920",1.000,0.000,34,32,32,31,00,21,7f,37*2d1e746d
#BESTPOSA,USB1,0,50.0,FINESTEERING,2404,603768.000,03000800,cdba,18018;SOL_COMPUTED,NARROW_INT,51.07899645696,-114.13251416810,1114.3028,-16.6000,WGS84,0.0086,0.0060,0.0152,"3920",1.000,0.000,34,32,32,31,00,21,7f,37*d5dccf87
#BESTPOSA,USB1,0,50.0,FINESTEERING,2404,603769.000,03000800,cdba,18018;SOL_COMPUTED,NARROW_INT,51.07899645303,-114.13251418647,1114.3030,-16.6000,WGS84,0.0085,0.0060,0.0151,"3920",1.000,0.000,34,32,32,31,00,21,7f,37*ae9bd4d1
#BESTPOSA,USB1,0,41.5,FINESTEERING,2404,603770.000,03000800,cdba,18018;SOL_COMPUTED,NARROW_INT,51.07899644044,-114.13251417188,1114.3031,-16.6000,WGS84,0.0085,0.0059,0.0150,"3920",1.000,0.000,34,32,32,31,00,21,7f,37*edcec876
#BESTPOSA,USB1,0,41.5,FINESTEERING,2404,603771.000,03000800,cdba,18018;SOL_COMPUTED,NARROW_INT,51.07899646295,-114.13251416869,1114.3039,-16.6000,WGS84,0.0084,0.0059,0.0149,"3920",1.000,0.000,34,32,32,31,00,21,7f,37*08509b22
#BESTPOSA,USB1,0,49.0,FINESTEERING,2404,603772.000,03000800,cdba,18018;SOL_COMPUTED,NARROW_INT,51.07899645131,-114.13251416538,1114.3025,-16.6000,WGS84,0.0083,0.0058,0.0148,"3920",1.000,0.000,34,32,32,31,00,21,7f,37*39797b57
#BESTPOSA,USB1,0,44.0,FINESTEERING,2404,603773.000,03000800,cdba,18018;SOL_COMPUTED,NARROW_INT,51.07899643942,-114.13251417533,1114.3040,-16.6000,WGS84,0.0083,0.0058,0.0147,"3920",1.000,0.000,34,32,32,31,00,21,7f,37*881431c4
#BESTPOSA,USB1,0,44.0,FINESTEERING,2404,603774.000,03000800,cdba,18018;SOL_COMPUTED,NARROW_INT,51.07899645362,-114.13251416231,1114.3019,-16.6000,WGS84,0.0082,0.0058,0.0146,"3920",1.000,0.000,34,32,32,31,00,21,7f,37*06764d79
#BESTPOSA,USB1,0,45.5,FINESTEERING,2404,603775.000,03000800,cdba,18018;SOL_COMPUTED,NARROW_INT,51.07899643891,-114.13251417202,1114.3007,-16.6000,WGS84,0.0082,0.0057,0.0145,"3920",1.000,0.000,34,32,32,31,00,21,7f,37*489e1a61
#BESTPOSA,USB1,0,53.5,FINESTEERING,2404,603776.000,03000800,cdba,18018;SOL_COMPUTED,NARROW_INT,51.07899644113,-114.13251415054,1114.2995,-16.6000,WGS84,0.0081,0.0057,0.0145,"3920",1.000,0.000,34,32,32,31,00,21,7f,37*3e92d6a0
#BESTPOSA,USB1,0,51.5,FINESTEERING,2404,603777.000,03000800,cdba,18018;SOL_COMPUTED,NARROW_INT,51.07899645277,-114.13251415823,1114.3005,-16.6000,WGS84,0.0089,0.0063,0.0159,"3920",2.000,0.000,34,32,32,31,00,21,ff,37*08748899
#BESTPOSA,USB1,0,51.5,FINESTEERING,2404,603778.000,03000800,cdba,18018;SOL_COMPUTED,NARROW_INT,51.07899645081,-114.13251415447,1114.3011,-16.6000,WGS84,0.0097,0.0069,0.0173,"3920",3.000,0.000,34,32,32,31,00,21,ff,37*7606b359
#BESTPOSA,USB1,0,53.5,FINESTEERING,2404,603779.000,03000800,cdba,18018;SOL_COMPUTED,NARROW_INT,51.07899644463,-114.13251415083,1114.3006,-16.6000,WGS84,0.0104,0.0074,0.0186,"3920",4.000,0.000,34,31,31,30,00,21,ff,37*4fca14a7
#BESTPOSA,USB1,0,53.5,FINESTEERING,2404,603780.000,03000800,cdba,18018;SOL_COMPUTED,NARROW_INT,51.07899644309,-114.13251415149,1114.2984,-16.6000,WGS84,0.0111,0.0079,0.0198,"3920",5.000,0.000,34,31,31,30,00,21,ff,37*a3b924c9
#BESTPOSA,USB1,0,46.0,FINESTEERING,2404,603781.000,03000800,cdba,18018;SOL_COMPUTED,NARROW_INT,51.07899644505,-114.13251416750,1114.3017,-16.6000,WGS84,0.0081,0.0057,0.0147,"3920",1.000,0.000,34,31,31,30,00,21,7f,37*d8dfcacb
#BESTPOSA,USB1,0,46.0,FINESTEERING,2404,603782.000,03000800,cdba,18018;SOL_COMPUTED,NARROW_INT,51.07899643706,-114.13251416417,1114.2993,-16.6000,WGS84,0.0081,0.0057,0.0146,"3920",1.000,0.000,35,32,32,31,00,21,7f,37*cbe043f7
#BESTPOSA,USB1,0,50.5,FINESTEERING,2404,603783.000,03000800,cdba,18018;SOL_COMPUTED,NARROW_INT,51.07899642338,-114.13251415241,1114.3003,-16.6000,WGS84,0.0080,0.0056,0.0143,"3920",1.000,0.000,35,32,32,31,00,21,7f,37*4c15a0c0
#BESTPOSA,USB1,0,50.5,FINESTEERING,2404,603784.000,03000800,cdba,18018;SOL_COMPUTED,NARROW_INT,51.07899643899,-114.13251416620,1114.3025,-16.6000,WGS84,0.0080,0.0056,0.0143,"3920",1.000,0.000,35,31,31,30,00,21,7f,37*aeecb702
#BESTPOSA,USB1,0,51.0,FINESTEERING,2404,603785.000,03000800,cdba,18018;SOL_COMPUTED,NARROW_INT,51.07899644223,-114.13251416910,1114.2987,-16.6000,WGS84,0.0080,0.0056,0.0143,"3920",1.000,0.000,35,32,32,31,00,21,7f,37*611b7999
#BESTPOSA,USB1,0,49.5,FINESTEERING,2404,603786.000,03000800,cdba,18018;SOL_COMPUTED,NARROW_INT,51.07899644222,-114.13251415104,1114.3031,-16.6000,WGS84,0.0080,0.0056,0.0142,"3920",1.000,0.000,35,32,32,31,00,21,7f,37*dfce62fb
#BESTPOSA,USB1,0,49.5,FINESTEERING,2404,603787.000,03000800,cdba,18018;SOL_COMPUTED,NARROW_INT,51.07899643862,-114.13251418213,1114.2988,-16.6000,WGS84,0.0080,0.0056,0.0143,"3920",1.000,0.000,35,32,32,31,00,21,7f,37*e75cdfeb
#BESTPOSA,USB1,0,52.0,FINESTEERING,2404,603788.000,03000800,cdba,18018;SOL_COMPUTED,NARROW_INT,51.07899643978,-114.13251417851,1114.2995,-16.6000,WGS84,0.0081,0.0057,0.0144,"3920",1.000,0.000,35,31,31,30,00,21,7f,37*47e95885
#BESTPOSA,USB1,0,52.0,FINESTEERING,2404,603789.000,03000800,cdba,18018;SOL_COMPUTED,NARROW_INT,51.07899642829,-114.13251415778,1114.2983,-16.6000,WGS84,0.0081,0.0057,0.0144,"3920",1.000,0.000,35,31,31,30,00,21,7f,37*d9f7cc4f
#BESTPOSA,USB1,0,52.0,FINESTEERING,2404,603790.000,03000800,cdba,18018;SOL_COMPUTED,NARROW_INT,51.07899643055,-114.13251414495,1114.3028,-16.6000,WGS84,0.0081,0.0057,0.0143,"3920",1.000,0.000,35,32,32,31,00,21,7f,37*2df6b48b
#BESTPOSA,USB1,0,50.0,FINESTEERING,2404,603791.000,03000800,cdba,18018;SOL_COMPUTED,NARROW_INT,51.07899642682,-114.13251416037,1114.2975,-16.6000,WGS84,0.0081,0.0057,0.0143,"3920",1.000,0.000,35,31,31,30,00,21,7f,37*a53377bb
#BESTPOSA,USB1,0,44.0,FINESTEERING,2404,603792.000,03000800,cdba,18018;SOL_COMPUTED,NARROW_INT,51.07899646108,-114.13251415825,1114.2996,-16.6000,WGS84,0.0080,0.0056,0.0143,"3920",1.000,0.000,34,31,31,30,00,21,7f,37*8a5f3636
#BESTPOSA,USB1,0,44.0,FINESTEERING,2404,603793.000,03000800,cdba,18018;SOL_COMPUTED,NARROW_INT,51.07899644964,-114.13251416040,1114.3014,-16.6000,WGS84,0.0080,0.0056,0.0143,"3920",1.000,0.000,34,31,31,30,00,21,7f,37*2970afac
#BESTPOSA,USB1,0,49.0,FINESTEERING,2404,603794.000,03000800,cdba,18018;SOL_COMPUTED,NARROW_INT,51.07899645728,-114.13251415766,1114.2983,-16.6000,WGS84,0.0080,0.0056,0.0142,"3920",1.000,0.000,34,31,31,30,00,21,7f,37*8f9534ce
#BESTPOSA,USB1,0,49.0,FINESTEERING,2404,603795.000,03000800,cdba,18018;SOL_COMPUTED,NARROW_INT,51.07899646105,-114.13251416564,1114.3026,-16.6000,WGS84,0.0080,0.0056,0.0142,"3920",1.000,0.000,34,31,31,30,00,21,7f,37*1a8cdc72
#BESTPOSA,USB1,0,52.0,FINESTEERING,2404,603796.000,03000800,cdba,18018;SOL_COMPUTED,NARROW_INT,51.07899644928,-114.13251415910,1114.2970,-16.6000,WGS84,0.0080,0.0056,0.0142,"3920",1.000,0.000,34,31,31,30,00,21,7f,37*3def88a2
#BESTPOSA,USB1,0,51.5,FINESTEERING,2404,603797.000,03000800,cdba,18018;SOL_COMPUTED,NARROW_INT,51.07899643518,-114.13251416136,1114.2977,-16.6000,WGS84,0.0079,0.0056,0.0141,"3920",1.000,0.000,34,31,31,30,00,21,7f,37*a5cec5c7
